{
  "meta": {
    "generated_at": "2026-04-15T14:00:00.000Z",
    "total_comunas": 346,
    "total_stations": 1223,
    "source": "CSV oficial + API BencinaEnLinea"
  },
  "comunas": [
    { "nombre": "Arica", "region": "Arica y Parinacota", "lat": -18.4550, "lng": -70.2900, "stations": [1,2,3,4,5,6,7,8,9,10,11,12,13,14,15,16,17,18,19,20,21,22,23,24,25,26,27,28] },
    { "nombre": "Camarones", "region": "Arica y Parinacota", "lat": -19.0169, "lng": -69.8669, "stations": [] },
    { "nombre": "Putre", "region": "Arica y Parinacota", "lat": -18.2000, "lng": -69.5828, "stations": [] },
    { "nombre": "General Lagos", "region": "Arica y Parinacota", "lat": -17.6528, "lng": -69.6350, "stations": [] },
    { "nombre": "Iquique", "region": "Tarapacá", "lat": -20.2439, "lng": -70.1389, "stations": [29,30,31,32,33,34,35,36,37,38,39,40,41,42,43,44,45,46,47,48,49,50,51,52] },
    { "nombre": "Alto Hospicio", "region": "Tarapacá", "lat": -20.2569, "lng": -70.0219, "stations": [53,54,55,56,57,58,59,60,61] },
    { "nombre": "Pozo Almonte", "region": "Tarapacá", "lat": -20.2908, "lng": -69.6958, "stations": [62,63,64,65,66] },
    { "nombre": "Camiña", "region": "Tarapacá", "lat": -20.4828, "lng": -69.3669, "stations": [] },
    { "nombre": "Colchane", "region": "Tarapacá", "lat": -19.2839, "lng": -68.6750, "stations": [] },
    { "nombre": "Huara", "region": "Tarapacá", "lat": -19.8089, "lng": -69.9719, "stations": [] },
    { "nombre": "Pica", "region": "Tarapacá", "lat": -20.4828, "lng": -69.3778, "stations": [67] },
    { "nombre": "Antofagasta", "region": "Antofagasta", "lat": -23.6508, "lng": -70.3950, "stations": [68,69,70,71,72,73,74,75,76,77,78,79,80,81,82,83,84,85,86,87,88,89,90,91,92,93,94,95,96,97] },
    { "nombre": "Mejillones", "region": "Antofagasta", "lat": -23.1100, "lng": -70.4558, "stations": [98,99] },
    { "nombre": "Sierra Gorda", "region": "Antofagasta", "lat": -22.8978, "lng": -69.3228, "stations": [100] },
    { "nombre": "Taltal", "region": "Antofagasta", "lat": -25.4100, "lng": -70.4889, "stations": [101,102,103] },
    { "nombre": "Calama", "region": "Antofagasta", "lat": -22.4739, "lng": -68.9239, "stations": [104,105,106,107,108,109,110,111,112,113,114,115] },
    { "nombre": "Ollagüe", "region": "Antofagasta", "lat": -21.2328, "lng": -68.2669, "stations": [] },
    { "nombre": "San Pedro de Atacama", "region": "Antofagasta", "lat": -22.9200, "lng": -68.2100, "stations": [116,117] },
    { "nombre": "Tocopilla", "region": "Antofagasta", "lat": -22.0819, "lng": -70.1889, "stations": [118,119,120,121] },
    { "nombre": "María Elena", "region": "Antofagasta", "lat": -22.3169, "lng": -69.6769, "stations": [122] },
    { "nombre": "Copiapó", "region": "Atacama", "lat": -27.3750, "lng": -70.3289, "stations": [123,124,125,126,127,128,129,130,131,132,133,134,135,136,137,138,139,140,141,142,143,144,145,146] },
    { "nombre": "Caldera", "region": "Atacama", "lat": -27.0658, "lng": -70.8258, "stations": [147,148,149] },
    { "nombre": "Tierra Amarilla", "region": "Atacama", "lat": -27.4728, "lng": -70.2828, "stations": [150] },
    { "nombre": "Chañaral", "region": "Atacama", "lat": -26.3458, "lng": -70.6239, "stations": [151,152,153,154,155] },
    { "nombre": "Diego de Almagro", "region": "Atacama", "lat": -26.3900, "lng": -70.0519, "stations": [156,157,158] },
    { "nombre": "Vallenar", "region": "Atacama", "lat": -28.5769, "lng": -70.7700, "stations": [159,160,161,162,163,164,165,166,167] },
    { "nombre": "Alto del Carmen", "region": "Atacama", "lat": -28.7489, "lng": -70.4908, "stations": [] },
    { "nombre": "Freirina", "region": "Atacama", "lat": -28.5058, "lng": -71.0758, "stations": [] },
    { "nombre": "Huasco", "region": "Atacama", "lat": -28.4558, "lng": -71.1858, "stations": [168,169] },
    { "nombre": "La Serena", "region": "Coquimbo", "lat": -29.9069, "lng": -71.2469, "stations": [170,171,172,173,174,175,176,177,178,179,180,181,182,183,184,185,186,187,188,189,190,191,192,193,194,195,196,197,198,199,200] },
    { "nombre": "Coquimbo", "region": "Coquimbo", "lat": -29.9708, "lng": -71.3069, "stations": [201,202,203,204,205,206,207,208,209,210,211,212,213,214,215,216,217,218,219,220,221,222,223,224,225,226,227,228,229,230,231] },
    { "nombre": "Andacollo", "region": "Coquimbo", "lat": -30.2300, "lng": -71.0858, "stations": [232] },
    { "nombre": "La Higuera", "region": "Coquimbo", "lat": -29.5000, "lng": -71.2828, "stations": [] },
    { "nombre": "Paihuano", "region": "Coquimbo", "lat": -30.0378, "lng": -70.5069, "stations": [] },
    { "nombre": "Vicuña", "region": "Coquimbo", "lat": -30.0189, "lng": -70.7150, "stations": [233,234,235] },
    { "nombre": "Illapel", "region": "Coquimbo", "lat": -31.6389, "lng": -71.1789, "stations": [236,237,238] },
    { "nombre": "Canela", "region": "Coquimbo", "lat": -31.3958, "lng": -71.4189, "stations": [239,240] },
    { "nombre": "Los Vilos", "region": "Coquimbo", "lat": -31.9150, "lng": -71.5058, "stations": [241,242,243,244,245,246,247] },
    { "nombre": "Salamanca", "region": "Coquimbo", "lat": -31.7800, "lng": -70.9669, "stations": [248,249,250] },
    { "nombre": "Ovalle", "region": "Coquimbo", "lat": -30.5989, "lng": -71.1889, "stations": [251,252,253,254,255,256,257,258,259,260,261,262,263,264,265] },
    { "nombre": "Combarbalá", "region": "Coquimbo", "lat": -31.1800, "lng": -71.0039, "stations": [266,267] },
    { "nombre": "Monte Patria", "region": "Coquimbo", "lat": -30.7750, "lng": -70.9428, "stations": [268,269] },
    { "nombre": "Punitaqui", "region": "Coquimbo", "lat": -30.8328, "lng": -71.2600, "stations": [270,271] },
    { "nombre": "Río Hurtado", "region": "Coquimbo", "lat": -30.2728, "lng": -70.6669, "stations": [] },
    { "nombre": "Valparaíso", "region": "Valparaíso", "lat": -33.0333, "lng": -71.6667, "stations": [272,273,274,275,276,277,278,279,280,281,282,283,284,285,286,287,288,289,290,291,292,293,294,295,296,297,298,299,300,301,302,303,304,305] },
    { "nombre": "Casablanca", "region": "Valparaíso", "lat": -33.3250, "lng": -71.4100, "stations": [306,307,308] },
    { "nombre": "Concón", "region": "Valparaíso", "lat": -32.9600, "lng": -71.4689, "stations": [309,310,311,312,313,314] },
    { "nombre": "Juan Fernández", "region": "Valparaíso", "lat": -33.6328, "lng": -78.8669, "stations": [] },
    { "nombre": "Puchuncaví", "region": "Valparaíso", "lat": -32.7478, "lng": -71.3978, "stations": [315,316,317] },
    { "nombre": "Quintero", "region": "Valparaíso", "lat": -32.8450, "lng": -71.4669, "stations": [318,319,320,321,322] },
    { "nombre": "Viña del Mar", "region": "Valparaíso", "lat": -33.0250, "lng": -71.5150, "stations": [323,324,325,326,327,328,329,330,331,332,333,334,335,336,337,338,339,340,341,342,343,344,345,346,347,348,349,350,351,352,353,354,355,356,357,358,359,360] },
    { "nombre": "Isla de Pascua", "region": "Valparaíso", "lat": -27.1286, "lng": -109.3597, "stations": [361,362,363] },
    { "nombre": "Los Andes", "region": "Valparaíso", "lat": -32.8369, "lng": -70.5969, "stations": [364,365,366,367,368,369,370,371,372,373,374,375,376] },
    { "nombre": "Calle Larga", "region": "Valparaíso", "lat": -32.8831, "lng": -70.4819, "stations": [377] },
    { "nombre": "Rinconada", "region": "Valparaíso", "lat": -32.8331, "lng": -70.6883, "stations": [380] },
    { "nombre": "San Esteban", "region": "Valparaíso", "lat": -32.8050, "lng": -70.5808, "stations": [378,379] },
    { "nombre": "La Ligua", "region": "Valparaíso", "lat": -32.3536, "lng": -71.2719, "stations": [381,382,383] },
    { "nombre": "Cabildo", "region": "Valparaíso", "lat": -32.4089, "lng": -71.0800, "stations": [384,385] },
    { "nombre": "Papudo", "region": "Valparaíso", "lat": -32.4700, "lng": -71.3808, "stations": [386,387] },
    { "nombre": "Petorca", "region": "Valparaíso", "lat": -32.2900, "lng": -70.9500, "stations": [388] },
    { "nombre": "Zapallar", "region": "Valparaíso", "lat": -32.5678, "lng": -71.4378, "stations": [389] },
    { "nombre": "Quillota", "region": "Valparaíso", "lat": -32.9150, "lng": -71.2639, "stations": [390,391,392,393,394,395,396,397,398,399,400,401,402] },
    { "nombre": "La Calera", "region": "Valparaíso", "lat": -32.7839, "lng": -71.2039, "stations": [403,404,405,406,407,408,409] },
    { "nombre": "Hijuelas", "region": "Valparaíso", "lat": -32.8550, "lng": -71.0939, "stations": [410,411,412] },
    { "nombre": "La Cruz", "region": "Valparaíso", "lat": -32.8239, "lng": -71.2439, "stations": [413] },
    { "nombre": "Nogales", "region": "Valparaíso", "lat": -32.7358, "lng": -71.2078, "stations": [414,415] },
    { "nombre": "San Antonio", "region": "Valparaíso", "lat": -33.5947, "lng": -71.6072, "stations": [416,417,418,419,420,421,422,423,424,425,426,427,428,429,430] },
    { "nombre": "Algarrobo", "region": "Valparaíso", "lat": -33.3692, "lng": -71.6681, "stations": [431,432] },
    { "nombre": "Cartagena", "region": "Valparaíso", "lat": -33.5536, "lng": -71.6075, "stations": [433,434] },
    { "nombre": "El Quisco", "region": "Valparaíso", "lat": -33.3914, "lng": -71.6928, "stations": [435,436,437] },
    { "nombre": "El Tabo", "region": "Valparaíso", "lat": -33.4800, "lng": -71.6208, "stations": [438] },
    { "nombre": "Santo Domingo", "region": "Valparaíso", "lat": -33.7078, "lng": -71.6300, "stations": [439,440] },
    { "nombre": "San Felipe", "region": "Valparaíso", "lat": -32.7500, "lng": -70.7128, "stations": [441,442,443,444,445,446,447,448,449,450,451,452,453] },
    { "nombre": "Catemu", "region": "Valparaíso", "lat": -32.7808, "lng": -70.9689, "stations": [454] },
    { "nombre": "Llaillay", "region": "Valparaíso", "lat": -32.840588, "lng": -70.959100, "stations": [455,456,457,458] },
    { "nombre": "Panquehue", "region": "Valparaíso", "lat": -32.7839, "lng": -70.8369, "stations": [459] },
    { "nombre": "Putaendo", "region": "Valparaíso", "lat": -32.6278, "lng": -70.7158, "stations": [460,461] },
    { "nombre": "Santa María", "region": "Valparaíso", "lat": -32.7503, "lng": -70.6669, "stations": [462] },
    { "nombre": "Quilpué", "region": "Valparaíso", "lat": -33.0475, "lng": -71.4422, "stations": [463,464,465,466,467,468,469,470,471,472,473,474,475,476,477,478,479,480,481,482,483] },
    { "nombre": "Limache", "region": "Valparaíso", "lat": -33.0028, "lng": -71.2608, "stations": [484,485,486,487,488,489,490,491,492,493,494] },
    { "nombre": "Olmué", "region": "Valparaíso", "lat": -33.0089, "lng": -71.1700, "stations": [495,496] },
    { "nombre": "Villa Alemana", "region": "Valparaíso", "lat": -33.0658, "lng": -71.3289, "stations": [497,498,499,500,501,502,503,504,505,506,507] },
    { "nombre": "Santiago", "region": "Metropolitana", "lat": -33.4372, "lng": -70.6572, "stations": [1706,1707,1708,1709,1710,1711,1712,1713,1714,1715,1716,1717,1718,1719,1720,1721,1722,1723,1724,1725,1726,1727,1728,1838,1839,1840,1841,1842,1843,1844,1845,1846,1847,1848,1849,1850,1851,1852,1853,1854,1855,1856,1857,1858,1859,1860] },
    { "nombre": "Cerrillos", "region": "Metropolitana", "lat": -33.5000, "lng": -70.7167, "stations": [] },
    { "nombre": "Cerro Navia", "region": "Metropolitana", "lat": -33.4219, "lng": -70.7350, "stations": [] },
    { "nombre": "Conchalí", "region": "Metropolitana", "lat": -33.3800, "lng": -70.6750, "stations": [1601,1602,1603] },
    { "nombre": "El Bosque", "region": "Metropolitana", "lat": -33.5669, "lng": -70.6750, "stations": [1604,1605,1606,1607,1608,1609,1610,1611,1612,1613] },
    { "nombre": "Estación Central", "region": "Metropolitana", "lat": -33.4589, "lng": -70.6989, "stations": [1614,1615,1616,1617,1618,1619,1620,1621,1622,1623,1624,1625,1626,1627,1628] },
    { "nombre": "Huechuraba", "region": "Metropolitana", "lat": -33.3678, "lng": -70.6339, "stations": [1629,1630,1631,1632,1633,1634,1635,1636] },
    { "nombre": "Independencia", "region": "Metropolitana", "lat": -33.4128, "lng": -70.6658, "stations": [1637,1638,1639,1640,1641,1642,1643,1644,1645,1646,1647,1648,1649,1650,1651,1652] },
    { "nombre": "La Cisterna", "region": "Metropolitana", "lat": -33.5289, "lng": -70.6628, "stations": [1653,1654,1655,1656,1657,1658,1659] },
    { "nombre": "La Florida", "region": "Metropolitana", "lat": -33.5250, "lng": -70.5378, "stations": [1660,1661,1662,1663,1664,1665,1666,1667,1668,1669,1670,1671,1672,1673,1674,1675,1676,1677,1678,1679,1680,1681,1682,1683] },
    { "nombre": "La Granja", "region": "Metropolitana", "lat": -33.5833, "lng": -70.5833, "stations": [1684,1685,1686,1687] },
    { "nombre": "La Pintana", "region": "Metropolitana", "lat": -33.5828, "lng": -70.6339, "stations": [1688,1689,1690,1691,1692,1693] },
    { "nombre": "La Reina", "region": "Metropolitana", "lat": -33.4428, "lng": -70.5319, "stations": [1694,1695,1696,1697,1698,1699,1700,1701,1702,1703,1704,1705] },
    { "nombre": "Las Condes", "region": "Metropolitana", "lat": -33.4167, "lng": -70.5833, "stations": [1706,1707,1708,1709,1710,1711,1712,1713,1714,1715,1716,1717,1718,1719,1720,1721,1722,1723,1724,1725,1726,1727,1728] },
    { "nombre": "Lo Barnechea", "region": "Metropolitana", "lat": -33.3500, "lng": -70.5167, "stations": [1729,1730,1731,1732,1733,1734,1735,1736,1737,1738,1739,1740,1741,1742,1743] },
    { "nombre": "Lo Espejo", "region": "Metropolitana", "lat": -33.5219, "lng": -70.6869, "stations": [1744,1745] },
    { "nombre": "Lo Prado", "region": "Metropolitana", "lat": -33.4450, "lng": -70.7258, "stations": [1746,1747] },
    { "nombre": "Macul", "region": "Metropolitana", "lat": -33.4869, "lng": -70.6039, "stations": [1748,1749,1750,1751,1752,1753,1754,1755,1756,1757,1758] },
    { "nombre": "Maipú", "region": "Metropolitana", "lat": -33.5167, "lng": -70.7667, "stations": [1759,1760,1761,1762,1763,1764,1765,1766,1767,1768,1769,1770,1771,1772,1773,1774,1775,1776,1777,1778,1779,1780,1781,1782,1783,1784,1785,1786,1787] },
    { "nombre": "Ñuñoa", "region": "Metropolitana", "lat": -33.4539, "lng": -70.6039, "stations": [1788,1789,1790,1791,1792,1793,1794,1795,1796,1797,1798,1799,1800,1801,1802,1803,1804,1805,1806,1807,1808,1809,1810,1811] },
    { "nombre": "Pedro Aguirre Cerda", "region": "Metropolitana", "lat": -33.4661, "lng": -70.6336, "stations": [1812,1813,1814,1815,1816,1817,1818,1819] },
    { "nombre": "Peñalolén", "region": "Metropolitana", "lat": -33.4861, "lng": -70.5333, "stations": [1820,1821,1822,1823,1824,1825,1826,1827,1828,1829,1830,1831,1832,1833,1834,1835,1836,1837] },
    { "nombre": "Providencia", "region": "Metropolitana", "lat": -33.4350, "lng": -70.6158, "stations": [1838,1839,1840,1841,1842,1843,1844,1845,1846,1847,1848,1849,1850,1851,1852,1853,1854,1855,1856,1857,1858,1859,1860] },
    { "nombre": "Pudahuel", "region": "Metropolitana", "lat": -33.4333, "lng": -70.7167, "stations": [1861,1862,1863,1864,1865,1866,1867,1868,1869,1870,1871,1872,1873] },
    { "nombre": "Quilicura", "region": "Metropolitana", "lat": -33.3608, "lng": -70.7289, "stations": [1874,1875,1876,1877,1878,1879,1880,1881,1882,1883,1884,1885,1886,1887,1888] },
    { "nombre": "Quinta Normal", "region": "Metropolitana", "lat": -33.4269, "lng": -70.6989, "stations": [1889,1890,1891,1892,1893,1894,1895,1896,1897,1898,1899,1900,1901,1902,1903,1904,1905,1906,1907,1908] },
    { "nombre": "Recoleta", "region": "Metropolitana", "lat": -33.4058, "lng": -70.6400, "stations": [1909,1910,1911,1912,1913,1914,1915,1916,1917,1918,1919,1920,1921] },
    { "nombre": "Renca", "region": "Metropolitana", "lat": -33.3978, "lng": -70.7228, "stations": [1922,1923,1924,1925,1926,1927,1928,1929,1930,1931] },
    { "nombre": "San Joaquín", "region": "Metropolitana", "lat": -33.4908, "lng": -70.6278, "stations": [1932,1933,1934,1935,1936,1937,1938,1939,1940,1941,1942,1943] },
    { "nombre": "San Miguel", "region": "Metropolitana", "lat": -33.4858, "lng": -70.6494, "stations": [1944,1945,1946,1947,1948,1949,1950,1951,1952,1953] },
    { "nombre": "San Ramón", "region": "Metropolitana", "lat": -33.5428, "lng": -70.6439, "stations": [1954,1955,1956,1957,1958] },
    { "nombre": "Vitacura", "region": "Metropolitana", "lat": -33.4000, "lng": -70.6000, "stations": [1959,1960,1961,1962,1963,1964,1965,1966,1967,1968,1969,1970,1971,1972,1973,1974] },
    { "nombre": "Puente Alto", "region": "Metropolitana", "lat": -33.6158, "lng": -70.5700, "stations": [1975,1976,1977,1978,1979,1980,1981,1982,1983,1984,1985,1986,1987,1988,1989,1990,1991,1992,1993,1994,1995,1996,1997,1998,1999,2000,2001,2002] },
    { "nombre": "Pirque", "region": "Metropolitana", "lat": -33.6333, "lng": -70.5500, "stations": [2003,2004] },
    { "nombre": "San José de Maipo", "region": "Metropolitana", "lat": -33.6439, "lng": -70.3528, "stations": [2005,2006] },
    { "nombre": "Colina", "region": "Metropolitana", "lat": -33.1939, "lng": -70.6678, "stations": [2007,2008,2009,2010,2011,2012,2013,2014,2015,2016,2017,2018,2019,2020,2021,2022,2023,2024,2025] },
    { "nombre": "Lampa", "region": "Metropolitana", "lat": -33.2858, "lng": -70.8778, "stations": [2026,2027,2028,2029,2030,2031,2032,2033,2034,2035,2036,2037,2038] },
    { "nombre": "Til Til", "region": "Metropolitana", "lat": -33.0850, "lng": -70.9250, "stations": [2039,2040,2041] },
    { "nombre": "San Bernardo", "region": "Metropolitana", "lat": -33.5819, "lng": -70.6869, "stations": [2042,2043,2044,2045,2046,2047,2048,2049,2050,2051,2052,2053,2054,2055,2056,2057,2058,2059,2060,2061,2062,2063,2064,2065,2066,2067,2068,2069,2070,2071,2072,2073] },
    { "nombre": "Buin", "region": "Metropolitana", "lat": -33.7278, "lng": -70.7389, "stations": [2074,2075,2076,2077,2078,2079,2080,2081,2082,2083,2084,2085] },
    { "nombre": "Calera de Tango", "region": "Metropolitana", "lat": -33.6278, "lng": -70.7850, "stations": [2086,2087,2088,2089] },
    { "nombre": "Paine", "region": "Metropolitana", "lat": -33.8119, "lng": -70.7228, "stations": [2090,2091,2092,2093,2094,2095,2096] },
    { "nombre": "Melipilla", "region": "Metropolitana", "lat": -33.6889, "lng": -71.2078, "stations": [2097,2098,2099,2100,2101,2102,2103,2104,2105,2106,2107,2108,2109,2110,2111] },
    { "nombre": "Alhué", "region": "Metropolitana", "lat": -34.0333, "lng": -71.1000, "stations": [2112] },
    { "nombre": "Curacaví", "region": "Metropolitana", "lat": -33.3989, "lng": -71.1369, "stations": [2113,2114,2115] },
    { "nombre": "María Pinto", "region": "Metropolitana", "lat": -33.5150, "lng": -71.1189, "stations": [2116] },
    { "nombre": "San Pedro", "region": "Metropolitana", "lat": -33.9000, "lng": -71.4667, "stations": [] },
    { "nombre": "Talagante", "region": "Metropolitana", "lat": -33.6669, "lng": -70.9308, "stations": [2117,2118,2120] },
    { "nombre": "El Monte", "region": "Metropolitana", "lat": -33.6839, "lng": -71.0169, "stations": [] },
    { "nombre": "Isla de Maipo", "region": "Metropolitana", "lat": -33.7539, "lng": -70.8858, "stations": [] },
    { "nombre": "Padre Hurtado", "region": "Metropolitana", "lat": -33.5667, "lng": -70.8333, "stations": [] },
    { "nombre": "Peñaflor", "region": "Metropolitana", "lat": -33.6061, "lng": -70.8764, "stations": [] },
    { "nombre": "Rancagua", "region": "O'Higgins", "lat": -34.1619, "lng": -70.7408, "stations": [508,509,510,511,512,513,514,515,516,517,518,519,520,521,522,523,524,525,526,527,528,529,530,531,532,533,534,535,536,537,538,539,540] },
    { "nombre": "Codegua", "region": "O'Higgins", "lat": -34.0328, "lng": -70.6669, "stations": [] },
    { "nombre": "Coinco", "region": "O'Higgins", "lat": -34.2728, "lng": -70.9528, "stations": [] },
    { "nombre": "Coltauco", "region": "O'Higgins", "lat": -34.2969, "lng": -71.0919, "stations": [] },
    { "nombre": "Doñihue", "region": "O'Higgins", "lat": -34.1850, "lng": -70.8839, "stations": [] },
    { "nombre": "Graneros", "region": "O'Higgins", "lat": -34.0628, "lng": -70.7208, "stations": [] },
    { "nombre": "Las Cabras", "region": "O'Higgins", "lat": -34.2850, "lng": -71.3100, "stations": [] },
    { "nombre": "Machalí", "region": "O'Higgins", "lat": -34.1850, "lng": -70.6619, "stations": [] },
    { "nombre": "Malloa", "region": "O'Higgins", "lat": -34.4450, "lng": -70.9450, "stations": [] },
    { "nombre": "Mostazal", "region": "O'Higgins", "lat": -33.9769, "lng": -70.7089, "stations": [] },
    { "nombre": "Olivar", "region": "O'Higgins", "lat": -34.2139, "lng": -70.8189, "stations": [] },
    { "nombre": "Peumo", "region": "O'Higgins", "lat": -34.3889, "lng": -71.1708, "stations": [] },
    { "nombre": "Pichidegua", "region": "O'Higgins", "lat": -34.3569, "lng": -71.2869, "stations": [] },
    { "nombre": "Quinta de Tilcoco", "region": "O'Higgins", "lat": -34.3569, "lng": -70.9689, "stations": [] },
    { "nombre": "Rengo", "region": "O'Higgins", "lat": -34.4019, "lng": -70.8558, "stations": [] },
    { "nombre": "Requínoa", "region": "O'Higgins", "lat": -34.2828, "lng": -70.8058, "stations": [] },
    { "nombre": "San Vicente", "region": "O'Higgins", "lat": -34.0828, "lng": -71.7500, "stations": [] },
    { "nombre": "Pichilemu", "region": "O'Higgins", "lat": -34.4019, "lng": -72.0089, "stations": [] },
    { "nombre": "La Estrella", "region": "O'Higgins", "lat": -34.2000, "lng": -71.6669, "stations": [] },
    { "nombre": "Litueche", "region": "O'Higgins", "lat": -34.1189, "lng": -71.7278, "stations": [] },
    { "nombre": "Marchihue", "region": "O'Higgins", "lat": -34.4000, "lng": -71.6333, "stations": [] },
    { "nombre": "Navidad", "region": "O'Higgins", "lat": -33.9500, "lng": -71.8328, "stations": [] },
    { "nombre": "Paredones", "region": "O'Higgins", "lat": -34.6608, "lng": -71.8939, "stations": [] },
    { "nombre": "San Fernando", "region": "O'Higgins", "lat": -34.5839, "lng": -70.9869, "stations": [] },
    { "nombre": "Chépica", "region": "O'Higgins", "lat": -34.7328, "lng": -71.2828, "stations": [] },
    { "nombre": "Chimbarongo", "region": "O'Higgins", "lat": -34.7078, "lng": -71.0419, "stations": [] },
    { "nombre": "Lolol", "region": "O'Higgins", "lat": -34.7308, "lng": -71.6358, "stations": [] },
    { "nombre": "Nancagua", "region": "O'Higgins", "lat": -34.6489, "lng": -71.2028, "stations": [] },
    { "nombre": "Palmilla", "region": "O'Higgins", "lat": -34.6039, "lng": -71.3578, "stations": [] },
    { "nombre": "Peralillo", "region": "O'Higgins", "lat": -34.4828, "lng": -71.4828, "stations": [] },
    { "nombre": "Placilla", "region": "O'Higgins", "lat": -34.6328, "lng": -71.1169, "stations": [] },
    { "nombre": "Pumanque", "region": "O'Higgins", "lat": -34.6050, "lng": -71.6439, "stations": [] },
    { "nombre": "Santa Cruz", "region": "O'Higgins", "lat": -34.6308, "lng": -71.3589, "stations": [] },
    { "nombre": "Talca", "region": "Maule", "lat": -35.4228, "lng": -71.6569, "stations": [] },
    { "nombre": "Constitución", "region": "Maule", "lat": -35.3389, "lng": -72.4139, "stations": [] },
    { "nombre": "Curepto", "region": "Maule", "lat": -35.0828, "lng": -72.0169, "stations": [] },
    { "nombre": "Empedrado", "region": "Maule", "lat": -35.5908, "lng": -72.2728, "stations": [] },
    { "nombre": "Maule", "region": "Maule", "lat": -35.5158, "lng": -71.5719, "stations": [] },
    { "nombre": "Pelarco", "region": "Maule", "lat": -35.3778, "lng": -71.4450, "stations": [] },
    { "nombre": "Pencahue", "region": "Maule", "lat": -35.4000, "lng": -71.8167, "stations": [] },
    { "nombre": "Río Claro", "region": "Maule", "lat": -35.2169, "lng": -71.2500, "stations": [] },
    { "nombre": "San Clemente", "region": "Maule", "lat": -35.5339, "lng": -71.4858, "stations": [] },
    { "nombre": "San Rafael", "region": "Maule", "lat": -35.3169, "lng": -71.5328, "stations": [] },
    { "nombre": "Cauquenes", "region": "Maule", "lat": -35.9639, "lng": -72.3169, "stations": [] },
    { "nombre": "Chanco", "region": "Maule", "lat": -35.7289, "lng": -72.5300, "stations": [] },
    { "nombre": "Pelluhue", "region": "Maule", "lat": -35.8139, "lng": -72.5739, "stations": [] },
    { "nombre": "Curicó", "region": "Maule", "lat": -34.9758, "lng": -71.2239, "stations": [] },
    { "nombre": "Hualañé", "region": "Maule", "lat": -34.9828, "lng": -71.8169, "stations": [] },
    { "nombre": "Licantén", "region": "Maule", "lat": -34.9828, "lng": -72.0000, "stations": [] },
    { "nombre": "Molina", "region": "Maule", "lat": -35.0900, "lng": -71.2789, "stations": [] },
    { "nombre": "Rauco", "region": "Maule", "lat": -34.9289, "lng": -71.3108, "stations": [] },
    { "nombre": "Romeral", "region": "Maule", "lat": -34.9669, "lng": -71.1328, "stations": [] },
    { "nombre": "Sagrada Familia", "region": "Maule", "lat": -35.0000, "lng": -71.3828, "stations": [] },
    { "nombre": "Teno", "region": "Maule", "lat": -34.8728, "lng": -71.1619, "stations": [] },
    { "nombre": "Vichuquén", "region": "Maule", "lat": -34.8228, "lng": -72.0350, "stations": [] },
    { "nombre": "Linares", "region": "Maule", "lat": -35.8500, "lng": -71.5850, "stations": [] },
    { "nombre": "Colbún", "region": "Maule", "lat": -35.7000, "lng": -71.4169, "stations": [] },
    { "nombre": "Longaví", "region": "Maule", "lat": -35.9658, "lng": -71.6819, "stations": [] },
    { "nombre": "Parral", "region": "Maule", "lat": -36.1469, "lng": -71.8219, "stations": [] },
    { "nombre": "Retiro", "region": "Maule", "lat": -36.0458, "lng": -71.7589, "stations": [] },
    { "nombre": "San Javier", "region": "Maule", "lat": -35.6000, "lng": -71.7500, "stations": [] },
    { "nombre": "Villa Alegre", "region": "Maule", "lat": -35.6650, "lng": -71.7419, "stations": [] },
    { "nombre": "Yerbas Buenas", "region": "Maule", "lat": -35.7500, "lng": -71.5828, "stations": [] },
    { "nombre": "Concepción", "region": "Biobío", "lat": -36.8150, "lng": -73.0289, "stations": [] },
    { "nombre": "Coronel", "region": "Biobío", "lat": -36.9819, "lng": -73.1569, "stations": [] },
    { "nombre": "Chiguayante", "region": "Biobío", "lat": -36.9089, "lng": -73.0278, "stations": [] },
    { "nombre": "Florida", "region": "Biobío", "lat": -36.8208, "lng": -72.6619, "stations": [] },
    { "nombre": "Hualqui", "region": "Biobío", "lat": -36.9669, "lng": -72.9328, "stations": [] },
    { "nombre": "Lota", "region": "Biobío", "lat": -37.0889, "lng": -73.1550, "stations": [] },
    { "nombre": "Penco", "region": "Biobío", "lat": -36.7419, "lng": -72.9978, "stations": [] },
    { "nombre": "San Pedro de La Paz", "region": "Biobío", "lat": -36.8639, "lng": -73.1078, "stations": [] },
    { "nombre": "Santa Juana", "region": "Biobío", "lat": -37.1792, "lng": -72.9353, "stations": [] },
    { "nombre": "Talcahuano", "region": "Biobío", "lat": -36.7358, "lng": -73.1050, "stations": [] },
    { "nombre": "Tomé", "region": "Biobío", "lat": -36.6239, "lng": -72.9500, "stations": [] },
    { "nombre": "Hualpén", "region": "Biobío", "lat": -36.7889, "lng": -73.1100, "stations": [] },
    { "nombre": "Lebu", "region": "Biobío", "lat": -37.6058, "lng": -73.6428, "stations": [] },
    { "nombre": "Arauco", "region": "Biobío", "lat": -37.2569, "lng": -73.2839, "stations": [] },
    { "nombre": "Cañete", "region": "Biobío", "lat": -35.2828, "lng": -72.2328, "stations": [] },
    { "nombre": "Contulmo", "region": "Biobío", "lat": -38.0050, "lng": -73.2250, "stations": [] },
    { "nombre": "Curanilahue", "region": "Biobío", "lat": -37.4719, "lng": -73.3478, "stations": [] },
    { "nombre": "Los Álamos", "region": "Biobío", "lat": -37.6208, "lng": -73.4558, "stations": [] },
    { "nombre": "Tirúa", "region": "Biobío", "lat": -38.3389, "lng": -73.4839, "stations": [] },
    { "nombre": "Los Ángeles", "region": "Biobío", "lat": -36.9439, "lng": -72.3508, "stations": [] },
    { "nombre": "Antuco", "region": "Biobío", "lat": -37.3269, "lng": -71.6778, "stations": [] },
    { "nombre": "Cabrero", "region": "Biobío", "lat": -37.0389, "lng": -72.3989, "stations": [] },
    { "nombre": "Laja", "region": "Biobío", "lat": -37.2669, "lng": -72.7000, "stations": [] },
    { "nombre": "Mulchén", "region": "Biobío", "lat": -37.7150, "lng": -72.2389, "stations": [] },
    { "nombre": "Nacimiento", "region": "Biobío", "lat": -37.5008, "lng": -72.6758, "stations": [] },
    { "nombre": "Negrete", "region": "Biobío", "lat": -37.5828, "lng": -72.5169, "stations": [] },
    { "nombre": "Quilaco", "region": "Biobío", "lat": -37.6800, "lng": -72.0069, "stations": [] },
    { "nombre": "Quilleco", "region": "Biobío", "lat": -37.4669, "lng": -71.9669, "stations": [] },
    { "nombre": "San Rosendo", "region": "Biobío", "lat": -37.2578, "lng": -72.7158, "stations": [] },
    { "nombre": "Santa Bárbara", "region": "Biobío", "lat": -37.6628, "lng": -72.0178, "stations": [] },
    { "nombre": "Tucapel", "region": "Biobío", "lat": -37.6328, "lng": -73.3328, "stations": [] },
    { "nombre": "Yumbel", "region": "Biobío", "lat": -37.0958, "lng": -72.5558, "stations": [] },
    { "nombre": "Alto Biobío", "region": "Biobío", "lat": -38.6189, "lng": -71.3242, "stations": [] },
    { "nombre": "Temuco", "region": "Araucanía", "lat": -38.7269, "lng": -72.5989, "stations": [] },
    { "nombre": "Carahue", "region": "Araucanía", "lat": -38.7069, "lng": -73.1600, "stations": [] },
    { "nombre": "Cunco", "region": "Araucanía", "lat": -38.9300, "lng": -72.0269, "stations": [] },
    { "nombre": "Curarrehue", "region": "Araucanía", "lat": -39.3589, "lng": -71.5878, "stations": [] },
    { "nombre": "Freire", "region": "Araucanía", "lat": -38.9539, "lng": -72.6219, "stations": [] },
    { "nombre": "Galvarino", "region": "Araucanía", "lat": -38.4000, "lng": -72.7833, "stations": [] },
    { "nombre": "Gorbea", "region": "Araucanía", "lat": -39.0950, "lng": -72.6719, "stations": [] },
    { "nombre": "Lautaro", "region": "Araucanía", "lat": -38.5289, "lng": -72.4269, "stations": [] },
    { "nombre": "Loncoche", "region": "Araucanía", "lat": -39.3539, "lng": -72.6278, "stations": [] },
    { "nombre": "Melipeuco", "region": "Araucanía", "lat": -38.8428, "lng": -71.6869, "stations": [] },
    { "nombre": "Nueva Imperial", "region": "Araucanía", "lat": -38.7450, "lng": -72.9500, "stations": [] },
    { "nombre": "Padre Las Casas", "region": "Araucanía", "lat": -38.7658, "lng": -72.5928, "stations": [] },
    { "nombre": "Perquenco", "region": "Araucanía", "lat": -38.4169, "lng": -72.3828, "stations": [] },
    { "nombre": "Pitrufquén", "region": "Araucanía", "lat": -38.9828, "lng": -72.6428, "stations": [] },
    { "nombre": "Pucón", "region": "Araucanía", "lat": -39.2819, "lng": -71.9539, "stations": [] },
    { "nombre": "Saavedra", "region": "Araucanía", "lat": -38.7828, "lng": -73.4000, "stations": [] },
    { "nombre": "Teodoro Schmidt", "region": "Araucanía", "lat": -38.9667, "lng": -73.0500, "stations": [] },
    { "nombre": "Toltén", "region": "Araucanía", "lat": -39.2169, "lng": -73.2169, "stations": [] },
    { "nombre": "Vilcún", "region": "Araucanía", "lat": -39.1167, "lng": -72.3794, "stations": [] },
    { "nombre": "Villarrica", "region": "Araucanía", "lat": -39.2800, "lng": -72.2178, "stations": [] },
    { "nombre": "Cholchol", "region": "Araucanía", "lat": -38.6000, "lng": -72.8500, "stations": [] },
    { "nombre": "Angol", "region": "Araucanía", "lat": -37.8028, "lng": -72.7019, "stations": [] },
    { "nombre": "Collipulli", "region": "Araucanía", "lat": -37.9528, "lng": -72.4319, "stations": [] },
    { "nombre": "Curacautín", "region": "Araucanía", "lat": -38.4319, "lng": -71.8900, "stations": [] },
    { "nombre": "Ercilla", "region": "Araucanía", "lat": -38.0500, "lng": -72.3833, "stations": [] },
    { "nombre": "Lonquimay", "region": "Araucanía", "lat": -38.4328, "lng": -71.2328, "stations": [] },
    { "nombre": "Los Sauces", "region": "Araucanía", "lat": -37.9669, "lng": -72.8328, "stations": [] },
    { "nombre": "Lumaco", "region": "Araucanía", "lat": -38.1628, "lng": -72.9039, "stations": [] },
    { "nombre": "Purén", "region": "Araucanía", "lat": -38.0219, "lng": -73.0700, "stations": [] },
    { "nombre": "Renaico", "region": "Araucanía", "lat": -37.6669, "lng": -72.5828, "stations": [] },
    { "nombre": "Traiguén", "region": "Araucanía", "lat": -38.2478, "lng": -72.6750, "stations": [] },
    { "nombre": "Victoria", "region": "Araucanía", "lat": -38.2300, "lng": -72.3428, "stations": [] },
    { "nombre": "Puerto Montt", "region": "Los Lagos", "lat": -41.4539, "lng": -72.9928, "stations": [] },
    { "nombre": "Calbuco", "region": "Los Lagos", "lat": -41.7578, "lng": -73.1508, "stations": [] },
    { "nombre": "Cochamó", "region": "Los Lagos", "lat": -41.5000, "lng": -72.3169, "stations": [] },
    { "nombre": "Fresia", "region": "Los Lagos", "lat": -41.1528, "lng": -73.4200, "stations": [] },
    { "nombre": "Frutillar", "region": "Los Lagos", "lat": -41.1167, "lng": -73.1000, "stations": [] },
    { "nombre": "Los Muermos", "region": "Los Lagos", "lat": -41.3908, "lng": -73.4650, "stations": [] },
    { "nombre": "Llanquihue", "region": "Los Lagos", "lat": -41.2658, "lng": -73.0119, "stations": [] },
    { "nombre": "Maullín", "region": "Los Lagos", "lat": -41.6178, "lng": -73.5978, "stations": [] },
    { "nombre": "Puerto Varas", "region": "Los Lagos", "lat": -41.3228, "lng": -72.9700, "stations": [] },
    { "nombre": "Castro", "region": "Los Lagos", "lat": -42.4778, "lng": -73.7789, "stations": [] },
    { "nombre": "Ancud", "region": "Los Lagos", "lat": -41.8769, "lng": -73.8139, "stations": [] },
    { "nombre": "Chonchi", "region": "Los Lagos", "lat": -42.6258, "lng": -73.7808, "stations": [] },
    { "nombre": "Curaco de Vélez", "region": "Los Lagos", "lat": -42.4339, "lng": -73.5819, "stations": [] },
    { "nombre": "Dalcahue", "region": "Los Lagos", "lat": -42.3739, "lng": -73.6508, "stations": [] },
    { "nombre": "Puqueldón", "region": "Los Lagos", "lat": -42.6039, "lng": -73.6839, "stations": [] },
    { "nombre": "Queilén", "region": "Los Lagos", "lat": -42.8739, "lng": -73.4700, "stations": [] },
    { "nombre": "Quellón", "region": "Los Lagos", "lat": -43.1208, "lng": -73.6078, "stations": [] },
    { "nombre": "Quemchi", "region": "Los Lagos", "lat": -42.1419, "lng": -73.4778, "stations": [] },
    { "nombre": "Quinchao", "region": "Los Lagos", "lat": -42.4789, "lng": -73.4969, "stations": [] },
    { "nombre": "Osorno", "region": "Los Lagos", "lat": -40.5739, "lng": -73.1258, "stations": [] },
    { "nombre": "Puerto Octay", "region": "Los Lagos", "lat": -40.9669, "lng": -72.9000, "stations": [] },
    { "nombre": "Purranque", "region": "Los Lagos", "lat": -40.9089, "lng": -73.1750, "stations": [] },
    { "nombre": "Puyehue", "region": "Los Lagos", "lat": -40.7169, "lng": -72.3208, "stations": [] },
    { "nombre": "Río Negro", "region": "Los Lagos", "lat": -41.9669, "lng": -72.4500, "stations": [] },
    { "nombre": "San Juan de la Costa", "region": "Los Lagos", "lat": -40.5008, "lng": -73.3919, "stations": [] },
    { "nombre": "San Pablo", "region": "Los Lagos", "lat": -40.4000, "lng": -73.0167, "stations": [] },
    { "nombre": "Chaitén", "region": "Los Lagos", "lat": -42.8989, "lng": -72.6669, "stations": [] },
    { "nombre": "Futaleufú", "region": "Los Lagos", "lat": -43.1678, "lng": -71.8478, "stations": [] },
    { "nombre": "Hualaihué", "region": "Los Lagos", "lat": -41.9919, "lng": -72.6669, "stations": [] },
    { "nombre": "Palena", "region": "Los Lagos", "lat": -43.6228, "lng": -71.8039, "stations": [] },
    { "nombre": "Coyhaique", "region": "Aysén", "lat": -45.5639, "lng": -72.0650, "stations": [] },
    { "nombre": "Lago Verde", "region": "Aysén", "lat": -44.2417, "lng": -71.8517, "stations": [] },
    { "nombre": "Aysén", "region": "Aysén", "lat": -45.4119, "lng": -72.6978, "stations": [] },
    { "nombre": "Cisnes", "region": "Aysén", "lat": -44.7508, "lng": -72.6969, "stations": [] },
    { "nombre": "Guaitecas", "region": "Aysén", "lat": -43.8833, "lng": -73.7333, "stations": [] },
    { "nombre": "Cochrane", "region": "Aysén", "lat": -47.2539, "lng": -72.5732, "stations": [] },
    { "nombre": "O'Higgins", "region": "Aysén", "lat": -48.4862, "lng": -72.9106, "stations": [] },
    { "nombre": "Tortel", "region": "Aysén", "lat": -47.8333, "lng": -73.5667, "stations": [] },
    { "nombre": "Chile Chico", "region": "Aysén", "lat": -46.5376, "lng": -71.7293, "stations": [] },
    { "nombre": "Río Ibáñez", "region": "Aysén", "lat": -46.2550, "lng": -71.9500, "stations": [] },
    { "nombre": "Punta Arenas", "region": "Magallanes", "lat": -53.1478, "lng": -70.9069, "stations": [] },
    { "nombre": "Laguna Blanca", "region": "Magallanes", "lat": -52.2669, "lng": -71.1828, "stations": [] },
    { "nombre": "Río Verde", "region": "Magallanes", "lat": -52.6278, "lng": -71.4769, "stations": [] },
    { "nombre": "San Gregorio", "region": "Magallanes", "lat": -52.5669, "lng": -70.0669, "stations": [] },
    { "nombre": "Cabo de Hornos", "region": "Magallanes", "lat": -54.9469, "lng": -67.6069, "stations": [] },
    { "nombre": "Antártica", "region": "Magallanes", "lat": -75.0000, "lng": -71.5000, "stations": [] },
    { "nombre": "Porvenir", "region": "Magallanes", "lat": -53.2978, "lng": -70.3850, "stations": [] },
    { "nombre": "Primavera", "region": "Magallanes", "lat": -52.8858, "lng": -69.3528, "stations": [] },
    { "nombre": "Timaukel", "region": "Magallanes", "lat": -53.6719, "lng": -69.7100, "stations": [] },
    { "nombre": "Natales", "region": "Magallanes", "lat": -51.7328, "lng": -72.5169, "stations": [] },
    { "nombre": "Torres del Paine", "region": "Magallanes", "lat": -50.9819, "lng": -72.4989, "stations": [] }
  ]
}
