{
  "meta": {
    "generated_at": "2026-04-15T12:00:00.000Z",
    "total": 346,
    "source": "CSV oficial + búsqueda manual"
  },
  "comunas": [
    { "nombre": "Arica", "region": "Arica y Parinacota", "lat": -18.4550, "lng": -70.2900 },
    { "nombre": "Camarones", "region": "Arica y Parinacota", "lat": -19.0169, "lng": -69.8669 },
    { "nombre": "Putre", "region": "Arica y Parinacota", "lat": -18.2000, "lng": -69.5828 },
    { "nombre": "General Lagos", "region": "Arica y Parinacota", "lat": -17.6528, "lng": -69.6350 },
    { "nombre": "Iquique", "region": "Tarapacá", "lat": -20.2439, "lng": -70.1389 },
    { "nombre": "Alto Hospicio", "region": "Tarapacá", "lat": -20.2569, "lng": -70.0219 },
    { "nombre": "Pozo Almonte", "region": "Tarapacá", "lat": -20.2908, "lng": -69.6958 },
    { "nombre": "Camiña", "region": "Tarapacá", "lat": -20.4828, "lng": -69.3669 },
    { "nombre": "Colchane", "region": "Tarapacá", "lat": -19.2839, "lng": -68.6750 },
    { "nombre": "Huara", "region": "Tarapacá", "lat": -19.8089, "lng": -69.9719 },
    { "nombre": "Pica", "region": "Tarapacá", "lat": -20.4828, "lng": -69.3778 },
    { "nombre": "Antofagasta", "region": "Antofagasta", "lat": -23.6508, "lng": -70.3950 },
    { "nombre": "Mejillones", "region": "Antofagasta", "lat": -23.1100, "lng": -70.4558 },
    { "nombre": "Sierra Gorda", "region": "Antofagasta", "lat": -22.8978, "lng": -69.3228 },
    { "nombre": "Taltal", "region": "Antofagasta", "lat": -25.4100, "lng": -70.4889 },
    { "nombre": "Calama", "region": "Antofagasta", "lat": -22.4739, "lng": -68.9239 },
    { "nombre": "Ollagüe", "region": "Antofagasta", "lat": -21.2328, "lng": -68.2669 },
    { "nombre": "San Pedro de Atacama", "region": "Antofagasta", "lat": -22.9200, "lng": -68.2100 },
    { "nombre": "Tocopilla", "region": "Antofagasta", "lat": -22.0819, "lng": -70.1889 },
    { "nombre": "María Elena", "region": "Antofagasta", "lat": -22.3169, "lng": -69.6769 },
    { "nombre": "Copiapó", "region": "Atacama", "lat": -27.3750, "lng": -70.3289 },
    { "nombre": "Caldera", "region": "Atacama", "lat": -27.0658, "lng": -70.8258 },
    { "nombre": "Tierra Amarilla", "region": "Atacama", "lat": -27.4728, "lng": -70.2828 },
    { "nombre": "Chañaral", "region": "Atacama", "lat": -26.3458, "lng": -70.6239 },
    { "nombre": "Diego de Almagro", "region": "Atacama", "lat": -26.3900, "lng": -70.0519 },
    { "nombre": "Vallenar", "region": "Atacama", "lat": -28.5769, "lng": -70.7700 },
    { "nombre": "Alto del Carmen", "region": "Atacama", "lat": -28.7489, "lng": -70.4908 },
    { "nombre": "Freirina", "region": "Atacama", "lat": -28.5058, "lng": -71.0758 },
    { "nombre": "Huasco", "region": "Atacama", "lat": -28.4558, "lng": -71.1858 },
    { "nombre": "La Serena", "region": "Coquimbo", "lat": -29.9069, "lng": -71.2469 },
    { "nombre": "Coquimbo", "region": "Coquimbo", "lat": -29.9708, "lng": -71.3069 },
    { "nombre": "Andacollo", "region": "Coquimbo", "lat": -30.2300, "lng": -71.0858 },
    { "nombre": "La Higuera", "region": "Coquimbo", "lat": -29.5000, "lng": -71.2828 },
    { "nombre": "Paihuano", "region": "Coquimbo", "lat": -30.0378, "lng": -70.5069 },
    { "nombre": "Vicuña", "region": "Coquimbo", "lat": -30.0189, "lng": -70.7150 },
    { "nombre": "Illapel", "region": "Coquimbo", "lat": -31.6389, "lng": -71.1789 },
    { "nombre": "Canela", "region": "Coquimbo", "lat": -31.3958, "lng": -71.4189 },
    { "nombre": "Los Vilos", "region": "Coquimbo", "lat": -31.9150, "lng": -71.5058 },
    { "nombre": "Salamanca", "region": "Coquimbo", "lat": -31.7800, "lng": -70.9669 },
    { "nombre": "Ovalle", "region": "Coquimbo", "lat": -30.5989, "lng": -71.1889 },
    { "nombre": "Combarbalá", "region": "Coquimbo", "lat": -31.1800, "lng": -71.0039 },
    { "nombre": "Monte Patria", "region": "Coquimbo", "lat": -30.7750, "lng": -70.9428 },
    { "nombre": "Punitaqui", "region": "Coquimbo", "lat": -30.8328, "lng": -71.2600 },
    { "nombre": "Río Hurtado", "region": "Coquimbo", "lat": -30.2728, "lng": -70.6669 },
    { "nombre": "Valparaíso", "region": "Valparaíso", "lat": -33.0333, "lng": -71.6667 },
    { "nombre": "Casablanca", "region": "Valparaíso", "lat": -33.3250, "lng": -71.4100 },
    { "nombre": "Concón", "region": "Valparaíso", "lat": -32.9600, "lng": -71.4689 },
    { "nombre": "Juan Fernández", "region": "Valparaíso", "lat": -33.6328, "lng": -78.8669 },
    { "nombre": "Puchuncaví", "region": "Valparaíso", "lat": -32.7478, "lng": -71.3978 },
    { "nombre": "Quintero", "region": "Valparaíso", "lat": -32.8450, "lng": -71.4669 },
    { "nombre": "Viña del Mar", "region": "Valparaíso", "lat": -33.0250, "lng": -71.5150 },
    { "nombre": "Isla de Pascua", "region": "Valparaíso", "lat": -27.1286, "lng": -109.3597 },
    { "nombre": "Los Andes", "region": "Valparaíso", "lat": -32.8369, "lng": -70.5969 },
    { "nombre": "Calle Larga", "region": "Valparaíso", "lat": -32.8831, "lng": -70.4819 },
    { "nombre": "Rinconada", "region": "Valparaíso", "lat": -32.8331, "lng": -70.6883 },
    { "nombre": "San Esteban", "region": "Valparaíso", "lat": -32.8050, "lng": -70.5808 },
    { "nombre": "La Ligua", "region": "Valparaíso", "lat": -32.3536, "lng": -71.2719 },
    { "nombre": "Cabildo", "region": "Valparaíso", "lat": -32.4089, "lng": -71.0800 },
    { "nombre": "Papudo", "region": "Valparaíso", "lat": -32.4700, "lng": -71.3808 },
    { "nombre": "Petorca", "region": "Valparaíso", "lat": -32.2900, "lng": -70.9500 },
    { "nombre": "Zapallar", "region": "Valparaíso", "lat": -32.5678, "lng": -71.4378 },
    { "nombre": "Quillota", "region": "Valparaíso", "lat": -32.9150, "lng": -71.2639 },
    { "nombre": "La Calera", "region": "Valparaíso", "lat": -32.7839, "lng": -71.2039 },
    { "nombre": "Hijuelas", "region": "Valparaíso", "lat": -32.8550, "lng": -71.0939 },
    { "nombre": "La Cruz", "region": "Valparaíso", "lat": -32.8239, "lng": -71.2439 },
    { "nombre": "Nogales", "region": "Valparaíso", "lat": -32.7358, "lng": -71.2078 },
    { "nombre": "San Antonio", "region": "Valparaíso", "lat": -33.5947, "lng": -71.6072 },
    { "nombre": "Algarrobo", "region": "Valparaíso", "lat": -33.3692, "lng": -71.6681 },
    { "nombre": "Cartagena", "region": "Valparaíso", "lat": -33.5536, "lng": -71.6075 },
    { "nombre": "El Quisco", "region": "Valparaíso", "lat": -33.3914, "lng": -71.6928 },
    { "nombre": "El Tabo", "region": "Valparaíso", "lat": -33.4800, "lng": -71.6208 },
    { "nombre": "Santo Domingo", "region": "Valparaíso", "lat": -33.7078, "lng": -71.6300 },
    { "nombre": "San Felipe", "region": "Valparaíso", "lat": -32.7500, "lng": -70.7128 },
    { "nombre": "Catemu", "region": "Valparaíso", "lat": -32.7808, "lng": -70.9689 },
    { "nombre": "Llay-Llay", "region": "Valparaíso", "lat": -32.8439, "lng": -70.9569 },
    { "nombre": "Panquehue", "region": "Valparaíso", "lat": -32.7839, "lng": -70.8369 },
    { "nombre": "Putaendo", "region": "Valparaíso", "lat": -32.6278, "lng": -70.7158 },
    { "nombre": "Santa María", "region": "Valparaíso", "lat": -32.7503, "lng": -70.6669 },
    { "nombre": "Quilpué", "region": "Valparaíso", "lat": -33.0475, "lng": -71.4422 },
    { "nombre": "Limache", "region": "Valparaíso", "lat": -33.0028, "lng": -71.2608 },
    { "nombre": "Olmué", "region": "Valparaíso", "lat": -33.0089, "lng": -71.1700 },
    { "nombre": "Villa Alemana", "region": "Valparaíso", "lat": -33.0658, "lng": -71.3289 },
    { "nombre": "Rancagua", "region": "O'Higgins", "lat": -34.1619, "lng": -70.7408 },
    { "nombre": "Codegua", "region": "O'Higgins", "lat": -34.0328, "lng": -70.6669 },
    { "nombre": "Coinco", "region": "O'Higgins", "lat": -34.2728, "lng": -70.9528 },
    { "nombre": "Coltauco", "region": "O'Higgins", "lat": -34.2969, "lng": -71.0919 },
    { "nombre": "Doñihue", "region": "O'Higgins", "lat": -34.1850, "lng": -70.8839 },
    { "nombre": "Graneros", "region": "O'Higgins", "lat": -34.0628, "lng": -70.7208 },
    { "nombre": "Las Cabras", "region": "O'Higgins", "lat": -34.2850, "lng": -71.3100 },
    { "nombre": "Machalí", "region": "O'Higgins", "lat": -34.1850, "lng": -70.6619 },
    { "nombre": "Malloa", "region": "O'Higgins", "lat": -34.4450, "lng": -70.9450 },
    { "nombre": "Mostazal", "region": "O'Higgins", "lat": -33.9769, "lng": -70.7089 },
    { "nombre": "Olivar", "region": "O'Higgins", "lat": -34.2139, "lng": -70.8189 },
    { "nombre": "Peumo", "region": "O'Higgins", "lat": -34.3889, "lng": -71.1708 },
    { "nombre": "Pichidegua", "region": "O'Higgins", "lat": -34.3569, "lng": -71.2869 },
    { "nombre": "Quinta de Tilcoco", "region": "O'Higgins", "lat": -34.3569, "lng": -70.9689 },
    { "nombre": "Rengo", "region": "O'Higgins", "lat": -34.4019, "lng": -70.8558 },
    { "nombre": "Requínoa", "region": "O'Higgins", "lat": -34.2828, "lng": -70.8058 },
    { "nombre": "San Vicente", "region": "O'Higgins", "lat": -34.0828, "lng": -71.7500 },
    { "nombre": "Pichilemu", "region": "O'Higgins", "lat": -34.4019, "lng": -72.0089 },
    { "nombre": "La Estrella", "region": "O'Higgins", "lat": -34.2000, "lng": -71.6669 },
    { "nombre": "Litueche", "region": "O'Higgins", "lat": -34.1189, "lng": -71.7278 },
    { "nombre": "Marchihue", "region": "O'Higgins", "lat": -34.4000, "lng": -71.6333 },
    { "nombre": "Navidad", "region": "O'Higgins", "lat": -33.9500, "lng": -71.8328 },
    { "nombre": "Paredones", "region": "O'Higgins", "lat": -34.6608, "lng": -71.8939 },
    { "nombre": "San Fernando", "region": "O'Higgins", "lat": -34.5839, "lng": -70.9869 },
    { "nombre": "Chépica", "region": "O'Higgins", "lat": -34.7328, "lng": -71.2828 },
    { "nombre": "Chimbarongo", "region": "O'Higgins", "lat": -34.7078, "lng": -71.0419 },
    { "nombre": "Lolol", "region": "O'Higgins", "lat": -34.7308, "lng": -71.6358 },
    { "nombre": "Nancagua", "region": "O'Higgins", "lat": -34.6489, "lng": -71.2028 },
    { "nombre": "Palmilla", "region": "O'Higgins", "lat": -34.6039, "lng": -71.3578 },
    { "nombre": "Peralillo", "region": "O'Higgins", "lat": -34.4828, "lng": -71.4828 },
    { "nombre": "Placilla", "region": "O'Higgins", "lat": -34.6328, "lng": -71.1169 },
    { "nombre": "Pumanque", "region": "O'Higgins", "lat": -34.6050, "lng": -71.6439 },
    { "nombre": "Santa Cruz", "region": "O'Higgins", "lat": -34.6308, "lng": -71.3589 },
    { "nombre": "Talca", "region": "Maule", "lat": -35.4228, "lng": -71.6569 },
    { "nombre": "Constitución", "region": "Maule", "lat": -35.3389, "lng": -72.4139 },
    { "nombre": "Curepto", "region": "Maule", "lat": -35.0828, "lng": -72.0169 },
    { "nombre": "Empedrado", "region": "Maule", "lat": -35.5908, "lng": -72.2728 },
    { "nombre": "Maule", "region": "Maule", "lat": -35.5158, "lng": -71.5719 },
    { "nombre": "Pelarco", "region": "Maule", "lat": -35.3778, "lng": -71.4450 },
    { "nombre": "Pencahue", "region": "Maule", "lat": -35.4000, "lng": -71.8167 },
    { "nombre": "Río Claro", "region": "Maule", "lat": -35.2169, "lng": -71.2500 },
    { "nombre": "San Clemente", "region": "Maule", "lat": -35.5339, "lng": -71.4858 },
    { "nombre": "San Rafael", "region": "Maule", "lat": -35.3169, "lng": -71.5328 },
    { "nombre": "Cauquenes", "region": "Maule", "lat": -35.9639, "lng": -72.3169 },
    { "nombre": "Chanco", "region": "Maule", "lat": -35.7289, "lng": -72.5300 },
    { "nombre": "Pelluhue", "region": "Maule", "lat": -35.8139, "lng": -72.5739 },
    { "nombre": "Curicó", "region": "Maule", "lat": -34.9758, "lng": -71.2239 },
    { "nombre": "Hualañé", "region": "Maule", "lat": -34.9828, "lng": -71.8169 },
    { "nombre": "Licantén", "region": "Maule", "lat": -34.9828, "lng": -72.0000 },
    { "nombre": "Molina", "region": "Maule", "lat": -35.0900, "lng": -71.2789 },
    { "nombre": "Rauco", "region": "Maule", "lat": -34.9289, "lng": -71.3108 },
    { "nombre": "Romeral", "region": "Maule", "lat": -34.9669, "lng": -71.1328 },
    { "nombre": "Sagrada Familia", "region": "Maule", "lat": -35.0000, "lng": -71.3828 },
    { "nombre": "Teno", "region": "Maule", "lat": -34.8728, "lng": -71.1619 },
    { "nombre": "Vichuquén", "region": "Maule", "lat": -34.8228, "lng": -72.0350 },
    { "nombre": "Linares", "region": "Maule", "lat": -35.8500, "lng": -71.5850 },
    { "nombre": "Colbún", "region": "Maule", "lat": -35.7000, "lng": -71.4169 },
    { "nombre": "Longaví", "region": "Maule", "lat": -35.9658, "lng": -71.6819 },
    { "nombre": "Parral", "region": "Maule", "lat": -36.1469, "lng": -71.8219 },
    { "nombre": "Retiro", "region": "Maule", "lat": -36.0458, "lng": -71.7589 },
    { "nombre": "San Javier", "region": "Maule", "lat": -35.6000, "lng": -71.7500 },
    { "nombre": "Villa Alegre", "region": "Maule", "lat": -35.6650, "lng": -71.7419 },
    { "nombre": "Yerbas Buenas", "region": "Maule", "lat": -35.7500, "lng": -71.5828 },
    { "nombre": "Concepción", "region": "Biobío", "lat": -36.8150, "lng": -73.0289 },
    { "nombre": "Coronel", "region": "Biobío", "lat": -36.9819, "lng": -73.1569 },
    { "nombre": "Chiguayante", "region": "Biobío", "lat": -36.9089, "lng": -73.0278 },
    { "nombre": "Florida", "region": "Biobío", "lat": -36.8208, "lng": -72.6619 },
    { "nombre": "Hualqui", "region": "Biobío", "lat": -36.9669, "lng": -72.9328 },
    { "nombre": "Lota", "region": "Biobío", "lat": -37.0889, "lng": -73.1550 },
    { "nombre": "Penco", "region": "Biobío", "lat": -36.7419, "lng": -72.9978 },
    { "nombre": "San Pedro de La Paz", "region": "Biobío", "lat": -36.8639, "lng": -73.1078 },
    { "nombre": "Santa Juana", "region": "Biobío", "lat": -37.1792, "lng": -72.9353 },
    { "nombre": "Talcahuano", "region": "Biobío", "lat": -36.7358, "lng": -73.1050 },
    { "nombre": "Tomé", "region": "Biobío", "lat": -36.6239, "lng": -72.9500 },
    { "nombre": "Hualpén", "region": "Biobío", "lat": -36.7889, "lng": -73.1100 },
    { "nombre": "Lebu", "region": "Biobío", "lat": -37.6058, "lng": -73.6428 },
    { "nombre": "Arauco", "region": "Biobío", "lat": -37.2569, "lng": -73.2839 },
    { "nombre": "Cañete", "region": "Biobío", "lat": -35.2828, "lng": -72.2328 },
    { "nombre": "Contulmo", "region": "Biobío", "lat": -38.0050, "lng": -73.2250 },
    { "nombre": "Curanilahue", "region": "Biobío", "lat": -37.4719, "lng": -73.3478 },
    { "nombre": "Los Álamos", "region": "Biobío", "lat": -37.6208, "lng": -73.4558 },
    { "nombre": "Tirúa", "region": "Biobío", "lat": -38.3389, "lng": -73.4839 },
    { "nombre": "Los Ángeles", "region": "Biobío", "lat": -36.9439, "lng": -72.3508 },
    { "nombre": "Antuco", "region": "Biobío", "lat": -37.3269, "lng": -71.6778 },
    { "nombre": "Cabrero", "region": "Biobío", "lat": -37.0389, "lng": -72.3989 },
    { "nombre": "Laja", "region": "Biobío", "lat": -37.2669, "lng": -72.7000 },
    { "nombre": "Mulchén", "region": "Biobío", "lat": -37.7150, "lng": -72.2389 },
    { "nombre": "Nacimiento", "region": "Biobío", "lat": -37.5008, "lng": -72.6758 },
    { "nombre": "Negrete", "region": "Biobío", "lat": -37.5828, "lng": -72.5169 },
    { "nombre": "Quilaco", "region": "Biobío", "lat": -37.6800, "lng": -72.0069 },
    { "nombre": "Quilleco", "region": "Biobío", "lat": -37.4669, "lng": -71.9669 },
    { "nombre": "San Rosendo", "region": "Biobío", "lat": -37.2578, "lng": -72.7158 },
    { "nombre": "Santa Bárbara", "region": "Biobío", "lat": -37.6628, "lng": -72.0178 },
    { "nombre": "Tucapel", "region": "Biobío", "lat": -37.6328, "lng": -73.3328 },
    { "nombre": "Yumbel", "region": "Biobío", "lat": -37.0958, "lng": -72.5558 },
    { "nombre": "Alto Biobío", "region": "Biobío", "lat": -38.6189, "lng": -71.3242 },
    { "nombre": "Temuco", "region": "Araucanía", "lat": -38.7269, "lng": -72.5989 },
    { "nombre": "Carahue", "region": "Araucanía", "lat": -38.7069, "lng": -73.1600 },
    { "nombre": "Cunco", "region": "Araucanía", "lat": -38.9300, "lng": -72.0269 },
    { "nombre": "Curarrehue", "region": "Araucanía", "lat": -39.3589, "lng": -71.5878 },
    { "nombre": "Freire", "region": "Araucanía", "lat": -38.9539, "lng": -72.6219 },
    { "nombre": "Galvarino", "region": "Araucanía", "lat": -38.4000, "lng": -72.7833 },
    { "nombre": "Gorbea", "region": "Araucanía", "lat": -39.0950, "lng": -72.6719 },
    { "nombre": "Lautaro", "region": "Araucanía", "lat": -38.5289, "lng": -72.4269 },
    { "nombre": "Loncoche", "region": "Araucanía", "lat": -39.3539, "lng": -72.6278 },
    { "nombre": "Melipeuco", "region": "Araucanía", "lat": -38.8428, "lng": -71.6869 },
    { "nombre": "Nueva Imperial", "region": "Araucanía", "lat": -38.7450, "lng": -72.9500 },
    { "nombre": "Padre Las Casas", "region": "Araucanía", "lat": -38.7658, "lng": -72.5928 },
    { "nombre": "Perquenco", "region": "Araucanía", "lat": -38.4169, "lng": -72.3828 },
    { "nombre": "Pitrufquén", "region": "Araucanía", "lat": -38.9828, "lng": -72.6428 },
    { "nombre": "Pucón", "region": "Araucanía", "lat": -39.2819, "lng": -71.9539 },
    { "nombre": "Saavedra", "region": "Araucanía", "lat": -38.7828, "lng": -73.4000 },
    { "nombre": "Teodoro Schmidt", "region": "Araucanía", "lat": -38.9667, "lng": -73.0500 },
    { "nombre": "Toltén", "region": "Araucanía", "lat": -39.2169, "lng": -73.2169 },
    { "nombre": "Vilcún", "region": "Araucanía", "lat": -39.1167, "lng": -72.3794 },
    { "nombre": "Villarrica", "region": "Araucanía", "lat": -39.2800, "lng": -72.2178 },
    { "nombre": "Cholchol", "region": "Araucanía", "lat": -38.6000, "lng": -72.8500 },
    { "nombre": "Angol", "region": "Araucanía", "lat": -37.8028, "lng": -72.7019 },
    { "nombre": "Collipulli", "region": "Araucanía", "lat": -37.9528, "lng": -72.4319 },
    { "nombre": "Curacautín", "region": "Araucanía", "lat": -38.4319, "lng": -71.8900 },
    { "nombre": "Ercilla", "region": "Araucanía", "lat": -38.0500, "lng": -72.3833 },
    { "nombre": "Lonquimay", "region": "Araucanía", "lat": -38.4328, "lng": -71.2328 },
    { "nombre": "Los Sauces", "region": "Araucanía", "lat": -37.9669, "lng": -72.8328 },
    { "nombre": "Lumaco", "region": "Araucanía", "lat": -38.1628, "lng": -72.9039 },
    { "nombre": "Purén", "region": "Araucanía", "lat": -38.0219, "lng": -73.0700 },
    { "nombre": "Renaico", "region": "Araucanía", "lat": -37.6669, "lng": -72.5828 },
    { "nombre": "Traiguén", "region": "Araucanía", "lat": -38.2478, "lng": -72.6750 },
    { "nombre": "Victoria", "region": "Araucanía", "lat": -38.2300, "lng": -72.3428 },
    { "nombre": "Puerto Montt", "region": "Los Lagos", "lat": -41.4539, "lng": -72.9928 },
    { "nombre": "Calbuco", "region": "Los Lagos", "lat": -41.7578, "lng": -73.1508 },
    { "nombre": "Cochamó", "region": "Los Lagos", "lat": -41.5000, "lng": -72.3169 },
    { "nombre": "Fresia", "region": "Los Lagos", "lat": -41.1528, "lng": -73.4200 },
    { "nombre": "Frutillar", "region": "Los Lagos", "lat": -41.1167, "lng": -73.1000 },
    { "nombre": "Los Muermos", "region": "Los Lagos", "lat": -41.3908, "lng": -73.4650 },
    { "nombre": "Llanquihue", "region": "Los Lagos", "lat": -41.2658, "lng": -73.0119 },
    { "nombre": "Maullín", "region": "Los Lagos", "lat": -41.6178, "lng": -73.5978 },
    { "nombre": "Puerto Varas", "region": "Los Lagos", "lat": -41.3228, "lng": -72.9700 },
    { "nombre": "Castro", "region": "Los Lagos", "lat": -42.4778, "lng": -73.7789 },
    { "nombre": "Ancud", "region": "Los Lagos", "lat": -41.8769, "lng": -73.8139 },
    { "nombre": "Chonchi", "region": "Los Lagos", "lat": -42.6258, "lng": -73.7808 },
    { "nombre": "Curaco de Vélez", "region": "Los Lagos", "lat": -42.4339, "lng": -73.5819 },
    { "nombre": "Dalcahue", "region": "Los Lagos", "lat": -42.3739, "lng": -73.6508 },
    { "nombre": "Puqueldón", "region": "Los Lagos", "lat": -42.6039, "lng": -73.6839 },
    { "nombre": "Queilén", "region": "Los Lagos", "lat": -42.8739, "lng": -73.4700 },
    { "nombre": "Quellón", "region": "Los Lagos", "lat": -43.1208, "lng": -73.6078 },
    { "nombre": "Quemchi", "region": "Los Lagos", "lat": -42.1419, "lng": -73.4778 },
    { "nombre": "Quinchao", "region": "Los Lagos", "lat": -42.4789, "lng": -73.4969 },
    { "nombre": "Osorno", "region": "Los Lagos", "lat": -40.5739, "lng": -73.1258 },
    { "nombre": "Puerto Octay", "region": "Los Lagos", "lat": -40.9669, "lng": -72.9000 },
    { "nombre": "Purranque", "region": "Los Lagos", "lat": -40.9089, "lng": -73.1750 },
    { "nombre": "Puyehue", "region": "Los Lagos", "lat": -40.7169, "lng": -72.3208 },
    { "nombre": "Río Negro", "region": "Los Lagos", "lat": -41.9669, "lng": -72.4500 },
    { "nombre": "San Juan de la Costa", "region": "Los Lagos", "lat": -40.5008, "lng": -73.3919 },
    { "nombre": "San Pablo", "region": "Los Lagos", "lat": -40.4000, "lng": -73.0167 },
    { "nombre": "Chaitén", "region": "Los Lagos", "lat": -42.8989, "lng": -72.6669 },
    { "nombre": "Futaleufú", "region": "Los Lagos", "lat": -43.1678, "lng": -71.8478 },
    { "nombre": "Hualaihué", "region": "Los Lagos", "lat": -41.9919, "lng": -72.6669 },
    { "nombre": "Palena", "region": "Los Lagos", "lat": -43.6228, "lng": -71.8039 },
    { "nombre": "Coyhaique", "region": "Aysén", "lat": -45.5639, "lng": -72.0650 },
    { "nombre": "Lago Verde", "region": "Aysén", "lat": -44.2417, "lng": -71.8517 },
    { "nombre": "Aysén", "region": "Aysén", "lat": -45.4119, "lng": -72.6978 },
    { "nombre": "Cisnes", "region": "Aysén", "lat": -44.7508, "lng": -72.6969 },
    { "nombre": "Guaitecas", "region": "Aysén", "lat": -43.8833, "lng": -73.7333 },
    { "nombre": "Cochrane", "region": "Aysén", "lat": -47.2539, "lng": -72.5732 },
    { "nombre": "O'Higgins", "region": "Aysén", "lat": -48.4862, "lng": -72.9106 },
    { "nombre": "Tortel", "region": "Aysén", "lat": -47.8333, "lng": -73.5667 },
    { "nombre": "Chile Chico", "region": "Aysén", "lat": -46.5376, "lng": -71.7293 },
    { "nombre": "Río Ibáñez", "region": "Aysén", "lat": -46.2550, "lng": -71.9500 },
    { "nombre": "Punta Arenas", "region": "Magallanes", "lat": -53.1478, "lng": -70.9069 },
    { "nombre": "Laguna Blanca", "region": "Magallanes", "lat": -52.2669, "lng": -71.1828 },
    { "nombre": "Río Verde", "region": "Magallanes", "lat": -52.6278, "lng": -71.4769 },
    { "nombre": "San Gregorio", "region": "Magallanes", "lat": -52.5669, "lng": -70.0669 },
    { "nombre": "Cabo de Hornos", "region": "Magallanes", "lat": -54.9469, "lng": -67.6069 },
    { "nombre": "Antártica", "region": "Magallanes", "lat": -75.0000, "lng": -71.5000 },
    { "nombre": "Porvenir", "region": "Magallanes", "lat": -53.2978, "lng": -70.3850 },
    { "nombre": "Primavera", "region": "Magallanes", "lat": -52.8858, "lng": -69.3528 },
    { "nombre": "Timaukel", "region": "Magallanes", "lat": -53.6719, "lng": -69.7100 },
    { "nombre": "Natales", "region": "Magallanes", "lat": -51.7328, "lng": -72.5169 },
    { "nombre": "Torres del Paine", "region": "Magallanes", "lat": -50.9819, "lng": -72.4989 },
    { "nombre": "Santiago", "region": "Metropolitana", "lat": -33.4372, "lng": -70.6572 },
    { "nombre": "Cerrillos", "region": "Metropolitana", "lat": -33.5000, "lng": -70.7167 },
    { "nombre": "Cerro Navia", "region": "Metropolitana", "lat": -33.4219, "lng": -70.7350 },
    { "nombre": "Conchalí", "region": "Metropolitana", "lat": -33.3800, "lng": -70.6750 },
    { "nombre": "El Bosque", "region": "Metropolitana", "lat": -33.5669, "lng": -70.6750 },
    { "nombre": "Estación Central", "region": "Metropolitana", "lat": -33.4589, "lng": -70.6989 },
    { "nombre": "Huechuraba", "region": "Metropolitana", "lat": -33.3678, "lng": -70.6339 },
    { "nombre": "Independencia", "region": "Metropolitana", "lat": -33.4128, "lng": -70.6658 },
    { "nombre": "La Cisterna", "region": "Metropolitana", "lat": -33.5289, "lng": -70.6628 },
    { "nombre": "La Florida", "region": "Metropolitana", "lat": -33.5250, "lng": -70.5378 },
    { "nombre": "La Granja", "region": "Metropolitana", "lat": -33.5833, "lng": -70.5833 },
    { "nombre": "La Pintana", "region": "Metropolitana", "lat": -33.5828, "lng": -70.6339 },
    { "nombre": "La Reina", "region": "Metropolitana", "lat": -33.4428, "lng": -70.5319 },
    { "nombre": "Las Condes", "region": "Metropolitana", "lat": -33.4167, "lng": -70.5833 },
    { "nombre": "Lo Barnechea", "region": "Metropolitana", "lat": -33.3500, "lng": -70.5167 },
    { "nombre": "Lo Espejo", "region": "Metropolitana", "lat": -33.5219, "lng": -70.6869 },
    { "nombre": "Lo Prado", "region": "Metropolitana", "lat": -33.4450, "lng": -70.7258 },
    { "nombre": "Macul", "region": "Metropolitana", "lat": -33.4869, "lng": -70.6039 },
    { "nombre": "Maipú", "region": "Metropolitana", "lat": -33.5167, "lng": -70.7667 },
    { "nombre": "Ñuñoa", "region": "Metropolitana", "lat": -33.4539, "lng": -70.6039 },
    { "nombre": "Pedro Aguirre Cerda", "region": "Metropolitana", "lat": -33.4661, "lng": -70.6336 },
    { "nombre": "Peñalolén", "region": "Metropolitana", "lat": -33.4861, "lng": -70.5333 },
    { "nombre": "Providencia", "region": "Metropolitana", "lat": -33.4350, "lng": -70.6158 },
    { "nombre": "Pudahuel", "region": "Metropolitana", "lat": -33.4333, "lng": -70.7167 },
    { "nombre": "Quilicura", "region": "Metropolitana", "lat": -33.3608, "lng": -70.7289 },
    { "nombre": "Quinta Normal", "region": "Metropolitana", "lat": -33.4269, "lng": -70.6989 },
    { "nombre": "Recoleta", "region": "Metropolitana", "lat": -33.4058, "lng": -70.6400 },
    { "nombre": "Renca", "region": "Metropolitana", "lat": -33.3978, "lng": -70.7228 },
    { "nombre": "San Joaquín", "region": "Metropolitana", "lat": -33.4908, "lng": -70.6278 },
    { "nombre": "San Miguel", "region": "Metropolitana", "lat": -33.4858, "lng": -70.6494 },
    { "nombre": "San Ramón", "region": "Metropolitana", "lat": -33.5428, "lng": -70.6439 },
    { "nombre": "Vitacura", "region": "Metropolitana", "lat": -33.4000, "lng": -70.6000 },
    { "nombre": "Puente Alto", "region": "Metropolitana", "lat": -33.6158, "lng": -70.5700 },
    { "nombre": "Pirque", "region": "Metropolitana", "lat": -33.6333, "lng": -70.5500 },
    { "nombre": "San José de Maipo", "region": "Metropolitana", "lat": -33.6439, "lng": -70.3528 },
    { "nombre": "Colina", "region": "Metropolitana", "lat": -33.1939, "lng": -70.6678 },
    { "nombre": "Lampa", "region": "Metropolitana", "lat": -33.2858, "lng": -70.8778 },
    { "nombre": "Til Til", "region": "Metropolitana", "lat": -33.0850, "lng": -70.9250 },
    { "nombre": "San Bernardo", "region": "Metropolitana", "lat": -33.5819, "lng": -70.6869 },
    { "nombre": "Buin", "region": "Metropolitana", "lat": -33.7278, "lng": -70.7389 },
    { "nombre": "Calera de Tango", "region": "Metropolitana", "lat": -33.6278, "lng": -70.7850 },
    { "nombre": "Paine", "region": "Metropolitana", "lat": -33.8119, "lng": -70.7228 },
    { "nombre": "Melipilla", "region": "Metropolitana", "lat": -33.6889, "lng": -71.2078 },
    { "nombre": "Alhué", "region": "Metropolitana", "lat": -34.0333, "lng": -71.1000 },
    { "nombre": "Curacaví", "region": "Metropolitana", "lat": -33.3989, "lng": -71.1369 },
    { "nombre": "María Pinto", "region": "Metropolitana", "lat": -33.5150, "lng": -71.1189 },
    { "nombre": "San Pedro", "region": "Metropolitana", "lat": -33.9000, "lng": -71.4667 },
    { "nombre": "Talagante", "region": "Metropolitana", "lat": -33.6669, "lng": -70.9308 },
    { "nombre": "El Monte", "region": "Metropolitana", "lat": -33.6839, "lng": -71.0169 },
    { "nombre": "Isla de Maipo", "region": "Metropolitana", "lat": -33.7539, "lng": -70.8858 },
    { "nombre": "Padre Hurtado", "region": "Metropolitana", "lat": -33.5667, "lng": -70.8333 },
    { "nombre": "Peñaflor", "region": "Metropolitana", "lat": -33.6061, "lng": -70.8764 },
    { "nombre": "Valdivia", "region": "Los Ríos", "lat": -39.8142, "lng": -73.2458 },
    { "nombre": "Corral", "region": "Los Ríos", "lat": -39.8669, "lng": -73.4328 },
    { "nombre": "Lanco", "region": "Los Ríos", "lat": -39.4469, "lng": -72.7719 },
    { "nombre": "Los Lagos", "region": "Los Ríos", "lat": -41.9200, "lng": -72.1419 },
    { "nombre": "Máfil", "region": "Los Ríos", "lat": -39.6500, "lng": -72.9500 },
    { "nombre": "Mariquina", "region": "Los Ríos", "lat": -40.1328, "lng": -72.3328 },
    { "nombre": "Paillaco", "region": "Los Ríos", "lat": -40.0678, "lng": -72.8828 },
    { "nombre": "Panguipulli", "region": "Los Ríos", "lat": -39.6419, "lng": -72.3400 },
    { "nombre": "La Unión", "region": "Los Ríos", "lat": -40.2919, "lng": -73.0878 },
    { "nombre": "Futrono", "region": "Los Ríos", "lat": -40.1308, "lng": -72.3958 },
    { "nombre": "Lago Ranco", "region": "Los Ríos", "lat": -40.3169, "lng": -72.5000 },
    { "nombre": "Río Bueno", "region": "Los Ríos", "lat": -40.3378, "lng": -72.9569 },
    { "nombre": "Chillán", "region": "Ñuble", "lat": -36.6008, "lng": -72.1089 },
    { "nombre": "Bulnes", "region": "Ñuble", "lat": -36.7389, "lng": -72.2919 },
    { "nombre": "Chillán Viejo", "region": "Ñuble", "lat": -36.6328, "lng": -72.1400 },
    { "nombre": "El Carmen", "region": "Ñuble", "lat": -36.9000, "lng": -72.0333 },
    { "nombre": "Pemuco", "region": "Ñuble", "lat": -36.9778, "lng": -72.0908 },
    { "nombre": "Pinto", "region": "Ñuble", "lat": -36.7000, "lng": -71.9000 },
    { "nombre": "Quillón", "region": "Ñuble", "lat": -36.7378, "lng": -72.4689 },
    { "nombre": "San Ignacio", "region": "Ñuble", "lat": -36.8000, "lng": -72.0333 },
    { "nombre": "Yungay", "region": "Ñuble", "lat": -37.1044, "lng": -71.9306 },
    { "nombre": "Quirihue", "region": "Ñuble", "lat": -36.2808, "lng": -72.5450 },
    { "nombre": "Cobquecura", "region": "Ñuble", "lat": -36.1328, "lng": -72.7828 },
    { "nombre": "Coelemu", "region": "Ñuble", "lat": -36.4850, "lng": -72.6939 },
    { "nombre": "Ninhue", "region": "Ñuble", "lat": -36.4008, "lng": -72.3969 },
    { "nombre": "Portezuelo", "region": "Ñuble", "lat": -36.5328, "lng": -72.4328 },
    { "nombre": "Ránquil", "region": "Ñuble", "lat": -36.6500, "lng": -72.5500 },
    { "nombre": "Treguaco", "region": "Ñuble", "lat": -36.4289, "lng": -72.6650 },
    { "nombre": "San Carlos", "region": "Ñuble", "lat": -36.4219, "lng": -71.9589 },
    { "nombre": "Coihueco", "region": "Ñuble", "lat": -36.6282, "lng": -71.8318 },
    { "nombre": "Ñiquén", "region": "Ñuble", "lat": -36.2869, "lng": -71.8989 },
    { "nombre": "San Fabián", "region": "Ñuble", "lat": -36.5539, "lng": -71.5489 },
    { "nombre": "San Nicolás", "region": "Ñuble", "lat": -36.8828, "lng": -72.4828 }
  ]
}
